{"type":"FeatureCollection","features":[{"type":"Feature","properties":{title: "Alberto Gerin","marker-color": "#f00", url: "http://tasc.it/author/alberto-gerin"},"geometry":{"type":"Point","coordinates":[13.7768182,45.6495264]}},{"type":"Feature","properties":{title: "Alberto Ziveri","marker-color": "#f00", url: "http://tasc.it/author/albertozi"},"geometry":{"type":"Point","coordinates":[10.3279036,44.801485]}},{"type":"Feature","properties":{title: "Alessandro Mariotto","marker-color": "#f00", url: "http://tasc.it/author/alemariotto"},"geometry":{"type":"Point","coordinates":[12.0805843,45.1304993]}},{"type":"Feature","properties":{title: "Alessandro Belli","marker-color": "#f00", url: "http://tasc.it/author/alessandrobelli"},"geometry":{"type":"Point","coordinates":[8.8016937,53.0792962]}},{"type":"Feature","properties":{title: "Alessio Romaniello","marker-color": "#f00", url: "http://tasc.it/author/alessioromaniello"},"geometry":{"type":"Point","coordinates":[14.2681244,40.8517746]}},{"type":"Feature","properties":{title: "Angelo Delicato","marker-color": "#f00", url: "http://tasc.it/author/angelodelicato"},"geometry":{"type":"Point","coordinates":[13.9851231,41.2928103]}},{"type":"Feature","properties":{title: "Annarita Lupi","marker-color": "#f00", url: "http://tasc.it/author/annarita83"},"geometry":{"type":"Point","coordinates":[13.8746469,42.9609785]}},{"type":"Feature","properties":{title: "BOB","marker-color": "#f00", url: "http://tasc.it/author/bob"},"geometry":{"type":"Point","coordinates":[9.1859243,45.4654219]}},{"type":"Feature","properties":{title: "Mario","marker-color": "#f00", url: "http://tasc.it/author/centaurx"},"geometry":{"type":"Point","coordinates":[9.1859243,45.4654219]}},{"type":"Feature","properties":{title: "Federica Scuratti","marker-color": "#f00", url: "http://tasc.it/author/chiccadoc"},"geometry":{"type":"Point","coordinates":[9.1859243,45.4654219]}},{"type":"Feature","properties":{title: "Davide Di Febbo","marker-color": "#f00", url: "http://tasc.it/author/ddf95"},"geometry":{"type":"Point","coordinates":[,]}},{"type":"Feature","properties":{title: "Edoardo De Martinis","marker-color": "#f00", url: "http://tasc.it/author/edo"},"geometry":{"type":"Point","coordinates":[,]}},{"type":"Feature","properties":{title: "Elisabetta Tortorella","marker-color": "#f00", url: "http://tasc.it/author/elisabetta"},"geometry":{"type":"Point","coordinates":[,]}},{"type":"Feature","properties":{title: "Federica Mutti","marker-color": "#f00", url: "http://tasc.it/author/federicamutti"},"geometry":{"type":"Point","coordinates":[,]}},{"type":"Feature","properties":{title: "Floriana Paolacci","marker-color": "#f00", url: "http://tasc.it/author/florianapaolacci"},"geometry":{"type":"Point","coordinates":[,]}},{"type":"Feature","properties":{title: "Gabriele Trapani","marker-color": "#f00", url: "http://tasc.it/author/gabri10"},"geometry":{"type":"Point","coordinates":[,]}},{"type":"Feature","properties":{title: "Giorgio Coltella","marker-color": "#f00", url: "http://tasc.it/author/giorgi-coltella"},"geometry":{"type":"Point","coordinates":[,]}},{"type":"Feature","properties":{title: "Gregorio Candolo","marker-color": "#f00", url: "http://tasc.it/author/gregorio-candolo"},"geometry":{"type":"Point","coordinates":[13.3612671,38.1156879]}},{"type":"Feature","properties":{title: "Paolo Dell'Aguzzo","marker-color": "#f00", url: "http://tasc.it/author/guzzopaul"},"geometry":{"type":"Point","coordinates":[13.2152224,43.7197926]}},{"type":"Feature","properties":{title: "Jacopo Agostini","marker-color": "#f00", url: "http://tasc.it/author/jacoago"},"geometry":{"type":"Point","coordinates":[11.9005017,42.1557504]}},{"type":"Feature","properties":{title: "Andrea Fabbri","marker-color": "#f00", url: "http://tasc.it/author/jango"},"geometry":{"type":"Point","coordinates":[12.5695158,44.0678288]}},{"type":"Feature","properties":{title: "Lavinia Maisto","marker-color": "#f00", url: "http://tasc.it/author/lavinov"},"geometry":{"type":"Point","coordinates":[9.1859243,45.4654219]}},{"type":"Feature","properties":{title: "Luca Toscano","marker-color": "#f00", url: "http://tasc.it/author/lucatoscano"},"geometry":{"type":"Point","coordinates":[9.1859243,45.4654219]}},{"type":"Feature","properties":{title: "Luca Parsani","marker-color": "#f00", url: "http://tasc.it/author/luco"},"geometry":{"type":"Point","coordinates":[9.6772698,45.6982642]}},{"type":"Feature","properties":{title: "luigino busatto","marker-color": "#f00", url: "http://tasc.it/author/luibu"},"geometry":{"type":"Point","coordinates":[12.2989231,45.5574362]}},{"type":"Feature","properties":{title: "Marco Biral","marker-color": "#f00", url: "http://tasc.it/author/marcobiral"},"geometry":{"type":"Point","coordinates":[12.2342958,45.5537964]}},{"type":"Feature","properties":{title: "Matteo Pelosi","marker-color": "#f00", url: "http://tasc.it/author/matteopelosi"},"geometry":{"type":"Point","coordinates":[9.1859243,45.4654219]}},{"type":"Feature","properties":{title: "Beatrice","marker-color": "#f00", url: "http://tasc.it/author/narayan"},"geometry":{"type":"Point","coordinates":[,]}},{"type":"Feature","properties":{title: "Mattia Navacchia","marker-color": "#f00", url: "http://tasc.it/author/navach"},"geometry":{"type":"Point","coordinates":[,]}},{"type":"Feature","properties":{title: "Domenico Neto","marker-color": "#f00", url: "http://tasc.it/author/netodomenico"},"geometry":{"type":"Point","coordinates":[,]}},{"type":"Feature","properties":{title: "Pacittovich","marker-color": "#f00", url: "http://tasc.it/author/pacittovich"},"geometry":{"type":"Point","coordinates":[,]}},{"type":"Feature","properties":{title: "Patrizio Stella","marker-color": "#f00", url: "http://tasc.it/author/patriziostella"},"geometry":{"type":"Point","coordinates":[,]}},{"type":"Feature","properties":{title: "Rynda","marker-color": "#f00", url: "http://tasc.it/author/rynda"},"geometry":{"type":"Point","coordinates":[,]}},{"type":"Feature","properties":{title: "Alessandro Ionni","marker-color": "#f00", url: "http://tasc.it/author/sephirothv92"},"geometry":{"type":"Point","coordinates":[,]}},{"type":"Feature","properties":{title: "Silvio Bergamo","marker-color": "#f00", url: "http://tasc.it/author/silviobergamo"},"geometry":{"type":"Point","coordinates":[16.2537357,39.2982629]}},{"type":"Feature","properties":{title: "Nicholas Wingfield","marker-color": "#f00", url: "http://tasc.it/author/thewinnic"},"geometry":{"type":"Point","coordinates":[12.4963655,41.9027835]}},{"type":"Feature","properties":{title: "Ugo Possenti","marker-color": "#f00", url: "http://tasc.it/author/ugoposs"},"geometry":{"type":"Point","coordinates":[12.4963655,41.9027835]}},{"type":"Feature","properties":{title: "Lorenzo Vezzoni","marker-color": "#f00", url: "http://tasc.it/author/vezzo91"},"geometry":{"type":"Point","coordinates":[10.3279036,44.801485]}},]}